City_ID,City,Lat,Lng,Max Temp,Humidity,Cloudiness,Wind Speed,Country,Date
0,siquijor,9.2156,123.5138,26.33,77,0,8.26,PH,1707831321
1,port-aux-francais,-49.3498,70.22,8.2,91,100,10.99,TF,1707831322
2,kon tum,14.3615,108.0039,17.27,93,4,1.72,VN,1707831322
3,celestun,20.8604,-90.3994,22.03,66,80,5.07,MX,1707831323
4,undurkhaan,47.3256,110.6649,-19.23,87,96,1.96,MN,1707831324
5,saipan,15.191,145.7467,22.11,88,75,9.77,MP,1707831325
6,huarmey,-10.0687,-78.1522,25.48,77,72,3.01,PE,1707831326
7,waitangi,-35.2705,174.0805,16.98,88,9,0.71,NZ,1707831327
8,adamstown,-25.0667,-130.1002,24.67,89,100,7.13,PN,1707831327
9,yellowknife,62.4541,-114.3774,-13.9,85,75,2.06,CA,1707831329
10,monmouth,51.8099,-2.716,10.4,95,100,1.79,GB,1707831329
11,tiksi,71.6366,128.8685,-30.99,100,100,2.09,RU,1707831330
12,shindand,33.3056,62.1566,15.2,18,0,0.68,AF,1707831331
13,la ronge,55.1005,-105.29,-3.9,74,100,3.09,CA,1707831332
14,jamestown,-15.9277,-5.7161,24.36,77,49,6.5,SH,1707831332
15,nemuro,43.3301,145.5829,1.23,88,1,6.3,JP,1707831333
16,santa isabel,-23.3194,-46.2272,29.66,52,100,4.32,BR,1707831334
17,margaret river,-33.9532,115.0769,16.28,65,91,6.68,AU,1707831335
18,santa cruz,28.4696,-16.2541,27.52,62,20,4.63,ES,1707831335
19,east london,-33.0192,27.8999,24.64,73,40,6.69,ZA,1707831336
20,thompson,55.7433,-97.8635,-8.9,92,100,2.06,CA,1707831337
21,peace river,56.2337,-117.2911,-6.42,86,0,2.57,CA,1707831338
22,vilyuysk,63.7541,121.6265,-31.67,98,99,1.34,RU,1707831338
23,udalguri,26.7504,92.0977,19.81,37,0,2.74,IN,1707831339
24,jastrebarsko,45.6717,15.6504,13.02,100,42,2.25,HR,1707831340
25,colonia,50.9384,6.96,11.59,59,75,5.66,DE,1707831341
26,ushuaia,-54.8061,-68.3185,13.83,44,0,6.69,AR,1707831341
27,badger,42.6144,-94.1462,-3.65,93,0,1.54,US,1707831342
28,bredasdorp,-34.5322,20.0403,28.8,33,10,7.57,ZA,1707831259
29,magadan,59.5605,150.7989,-27.43,100,84,1.7,RU,1707831344
30,barra de santo antonio,-9.4038,-35.5118,30.56,68,92,4.62,BR,1707831344
31,flying fish cove,-10.4213,105.6744,26.24,88,11,1.54,CX,1707831345
32,olonkinbyen,70.9224,-8.716,-1.44,98,100,5.73,SJ,1707831346
33,inari,68.9062,27.0261,-14.9,90,100,4.28,FI,1707831347
34,forster,-32.1806,152.5117,22.4,82,0,6.32,AU,1707831169
35,jijiga,9.3509,42.8004,27.28,28,74,3.23,ET,1707831348
36,tura,47.39,0.6889,10.67,77,75,6.17,FR,1707831257
37,hermanus,-34.4175,19.2361,23.8,71,39,5.14,ZA,1707831350
38,freetown,8.479,-13.268,30.56,55,24,5.66,SL,1707831350
39,klyuchi,56.3182,160.8422,-22.38,81,40,1.32,RU,1707831351
40,vorgashor,67.5812,63.7837,-33.07,95,11,2.52,RU,1707831352
41,dudinka,69.4061,86.1751,-37.38,99,18,1.79,RU,1707831353
42,kalmunai,7.4132,81.8269,25.15,89,9,4.09,LK,1707831353
43,puerto natales,-51.7262,-72.506,18.32,59,100,6.17,CL,1707831354
44,longyearbyen,78.2232,15.6464,-8.85,79,0,4.12,SJ,1707831355
45,albany,42.6512,-73.755,2.12,79,100,2.57,US,1707831356
46,kailua-kona,19.6419,-155.9969,21.98,65,0,1.54,US,1707831356
47,independence,39.0925,-94.4138,4.01,68,75,4.63,US,1707831357
48,sanctuary point,-35.1114,150.629,23.51,77,5,2.79,AU,1707831358
49,morrinhos,-17.7334,-49.1059,28.09,52,19,3.28,BR,1707831359
50,tazovsky,67.4735,78.7149,-39.27,100,36,1.08,RU,1707831359
51,trairi,-3.2777,-39.2681,29.34,73,60,4.75,BR,1707831360
52,buka,-5.2314,154.6315,28.25,76,100,2.49,PG,1707831361
53,tolanaro,-25.0297,46.9904,24.88,100,75,7.2,MG,1707831362
54,anadyr,64.7317,177.5061,-29.07,75,40,5.0,RU,1707831363
55,torre de moncorvo,41.1739,-7.0526,15.48,83,100,1.58,PT,1707831364
56,tabuk,28.4013,36.567,25.03,11,0,6.17,SA,1707831364
57,bilibino,68.055,166.4449,-31.71,98,93,2.21,RU,1707831365
58,port alfred,-33.5982,26.8915,22.81,80,97,4.02,ZA,1707831366
59,tobelo,1.7263,127.9999,26.3,84,20,1.19,ID,1707831367
60,talnakh,69.494,88.3908,-35.73,88,18,1.62,RU,1707831367
61,ilulissat,69.2197,-51.0986,-20.84,54,40,2.06,GL,1707831368
62,vadso,70.2267,29.7828,-12.01,85,75,7.72,NO,1707831369
63,funafuti,-8.52,179.1983,28.0,94,75,2.57,TV,1707831370
64,qaqortoq,60.7182,-46.0385,-0.09,98,100,5.15,GL,1707831371
65,kralendijk,12.1473,-68.274,28.03,74,75,8.75,BQ,1707831372
66,lerwick,60.1531,-1.1427,7.01,77,44,13.22,GB,1707831373
67,bethel,60.7922,-161.7558,0.19,100,100,4.63,US,1707831374
68,boende,-0.2837,20.8826,37.55,30,76,0.95,CD,1707831375
69,nikolayevsk-on-amure,53.1387,140.7249,-16.4,96,100,1.65,RU,1707831376
70,kapuskasing,49.4167,-82.4333,-18.95,84,75,3.09,CA,1707831377
71,hasaki,35.753,140.8201,11.22,62,0,3.93,JP,1707831377
72,kuhmo,64.1262,29.5195,-16.44,93,14,2.84,FI,1707831378
73,iqaluit,63.7494,-68.5219,-21.03,71,100,0.0,CA,1707831379
74,zdvinsk,54.704,78.6676,-12.98,90,100,5.66,RU,1707831380
75,enewetak,11.3409,162.3245,26.3,72,39,9.37,MH,1707831381
76,west island,-12.1459,96.8423,29.03,74,75,6.17,CC,1707831382
77,grytviken,-54.2806,-36.5098,7.62,88,100,3.2,GS,1707831383
78,chiredzi,-21.0453,31.6689,34.06,26,0,3.49,ZW,1707831383
79,egilsstadir,65.262,-14.4035,0.94,86,100,5.14,IS,1707831384
80,al jawf,24.1985,23.2939,24.54,21,0,7.92,LY,1707831385
81,mckenzie,31.5424,-86.715,6.82,78,100,4.19,US,1707831386
82,mount gambier,-37.8247,140.782,14.8,56,89,5.43,AU,1707831386
83,tsumeb,-19.2484,17.7088,33.73,24,4,5.14,NA,1707831387
84,grand falls-windsor,48.9442,-55.6526,-2.14,79,15,1.34,CA,1707831388
85,hamilton,43.2561,-79.8729,0.69,84,100,2.06,CA,1707831362
86,lorengau,-2.033,147.2789,27.46,81,99,4.2,PG,1707831389
87,happy valley-goose bay,53.2964,-60.3112,-6.71,86,100,4.63,CA,1707831390
88,sola,37.5667,126.9783,7.69,93,1,2.06,KR,1707831391
89,port mathurin,-19.6808,63.4221,27.65,85,55,8.95,MU,1707831392
90,nova sintra,14.8711,-24.6956,20.03,78,3,5.84,CV,1707831392
91,isna,25.2937,32.5532,30.01,8,0,6.9,EG,1707831393
92,sault ste. marie,46.5239,-84.3201,-5.02,78,100,4.63,CA,1707831222
93,iskateley,67.6762,53.1292,-29.41,98,67,3.58,RU,1707831395
94,caluula,11.9664,50.7571,26.49,74,0,9.06,SO,1707831396
95,udachny,66.4118,112.2517,-32.92,99,100,3.03,RU,1707831396
96,masterton,-40.9496,175.6594,12.69,97,10,1.29,NZ,1707831397
97,hithadhoo,1.7959,73.3876,27.99,80,100,7.08,MV,1707831398
98,ola,35.0323,-93.2232,0.06,89,0,1.62,US,1707830841
99,punta arenas,-53.1626,-70.9078,13.16,62,75,10.29,CL,1707831400
100,crane,31.3957,-102.3521,6.11,41,0,4.27,US,1707831402
101,blackmans bay,-43.0047,147.318,15.68,65,97,1.34,AU,1707831403
102,suva,-18.1416,178.4422,26.71,94,20,1.54,FJ,1707831403
103,uiju,40.1977,124.5311,1.49,98,100,1.68,KP,1707831404
104,la libertad,17.6864,-91.7211,20.3,89,100,2.57,MX,1707831405
105,namanga,-2.5474,36.7905,30.2,33,85,5.26,KE,1707831406
106,kamaishi,39.2757,141.8858,8.25,75,18,5.46,JP,1707831406
107,whitehorse,60.7216,-135.0549,-6.57,79,100,1.54,CA,1707831408
108,wailua homesteads,22.0581,-159.3691,21.4,84,0,4.12,US,1707831408
109,keflavik,63.9998,-22.5565,-0.05,80,20,9.26,IS,1707831409
110,talakan,50.2948,130.2826,-12.05,93,98,4.71,RU,1707831410
111,troitsko-pechorsk,62.7145,56.1854,-22.54,98,99,3.2,RU,1707831410
112,georgetown,6.8137,-58.1624,25.16,76,95,6.31,GY,1707831411
113,afaahiti,-17.739,-149.29,26.51,89,100,8.84,PF,1707831412
114,beyneu,45.3214,55.1862,10.3,59,100,4.51,KZ,1707831413
115,invercargill,-46.4118,168.3471,11.94,86,3,2.84,NZ,1707831413
116,valparaiso,-33.0458,-71.6197,22.19,78,100,6.69,CL,1707831414
117,arno,7.063,171.5553,27.92,74,100,4.63,MH,1707831415
118,lukuledi,-10.5676,38.8053,25.25,91,100,1.97,TZ,1707831416
119,papatowai,-46.5619,169.4708,15.63,72,96,1.74,NZ,1707831416
120,sao gabriel da cachoeira,-0.125,-67.0814,27.76,83,0,2.06,BR,1707831417
121,stanley,-51.6951,-57.8492,13.19,66,0,5.66,FK,1707831418
122,arraial do cabo,-22.9663,-42.0244,30.99,66,0,5.66,BR,1707831419
123,constantia,44.1767,28.6508,12.47,63,100,4.53,RO,1707831420
124,puerto ayora,-0.7472,-90.3134,26.78,100,99,2.24,EC,1707831421
125,nishinoomote,30.7325,130.9971,16.62,62,88,4.32,JP,1707831421
126,tamanrasset,22.7855,5.5324,28.9,10,0,3.09,DZ,1707831423
127,sohar,24.3446,56.7425,22.41,75,9,3.98,OM,1707831424
128,klaksvik,62.2266,-6.5853,6.58,76,91,6.17,FO,1707831424
129,villa juarez,22.3241,-100.267,12.08,59,100,1.15,MX,1707831425
130,edinburgh of the seven seas,-37.0676,-12.3108,18.06,72,90,4.72,SH,1707831426
131,jalai nur,49.4577,117.7123,-19.33,90,5,3.27,CN,1707831427
132,behshahr,36.6912,53.5434,22.96,44,7,0.14,IR,1707831428
133,prado,41.9204,-5.4204,14.48,63,100,8.22,ES,1707831429
134,san patricio,27.9695,-97.7732,6.99,58,0,1.28,US,1707831430
135,pizarro,4.9538,-77.3668,28.04,79,42,1.95,CO,1707831430
136,ratnagiri,16.9934,73.2954,24.29,63,59,4.86,IN,1707831431
137,rongelap,11.1629,166.8943,26.18,66,100,8.32,MH,1707831432
138,urangan,-25.294,152.8958,24.52,93,23,2.68,AU,1707831344
139,new norfolk,-42.7802,147.0615,15.85,85,95,4.87,AU,1707831434
140,kharkhorin,47.1928,102.8202,-20.32,83,1,2.55,MN,1707831435
141,okha,53.5891,142.9498,-16.87,95,100,3.61,RU,1707831436
142,pingxiang,37.0634,115.0255,12.32,41,98,0.42,CN,1707831437
143,college,45.3266,-75.8386,-2.3,85,20,2.06,CA,1707831437
144,monrovia,6.328,-10.7978,35.03,68,29,4.57,LR,1707831438
145,punta del este,-34.9632,-54.944,19.09,65,100,7.2,UY,1707831439
146,puerto san carlos,-12.6608,-63.55,24.86,93,100,1.26,BR,1707831440
147,scarborough,54.282,-0.4012,8.17,85,100,4.02,GB,1707831440
148,dakingari,11.645,4.0615,39.85,4,2,3.55,NG,1707831441
149,ulundi,-28.2919,31.4294,33.24,33,0,4.62,ZA,1707831442
150,holualoa,19.6238,-155.9536,19.77,64,0,1.54,US,1707831443
151,dryden,42.4909,-76.2972,-0.4,79,100,4.47,US,1707831443
152,susaki,33.4008,133.283,8.83,87,0,2.14,JP,1707831444
153,khandyga,62.6478,135.5751,-34.39,100,100,0.12,RU,1707831445
154,rexburg,43.8235,-111.787,-2.27,83,40,0.0,US,1707831446
155,cill airne,52.0598,-9.5081,9.99,93,40,4.12,IE,1707831447
156,kupang,-10.1632,123.6018,26.23,100,75,1.54,ID,1707831448
157,guerrero negro,27.971,-114.0364,15.24,51,0,3.26,MX,1707831448
158,aioun,16.6598,-9.6179,37.65,4,0,5.39,MR,1707831450
159,'ohonua,-21.3413,-174.9561,27.04,83,68,10.76,TO,1707831450
160,ribeira grande,37.8225,-25.5195,18.23,99,20,9.77,PT,1707831451
161,luanda,-8.8273,13.244,31.02,74,40,5.66,AO,1707831452
162,cabo san lucas,22.8939,-109.9201,16.84,84,0,4.12,MX,1707831419
163,kilindoni,-7.9114,39.6672,28.66,76,100,3.95,TZ,1707831454
164,midvagur,62.0491,-7.1892,6.51,75,60,3.09,FO,1707831454
165,moroto,-18.7223,-65.517,13.42,75,100,2.19,BO,1707831455
166,san antonio de pale,-1.4046,5.6326,29.39,73,100,2.53,GQ,1707831456
167,vilyuchinsk,52.9318,158.4054,-16.69,83,98,2.74,RU,1707831457
168,vila franca do campo,37.7172,-25.4335,18.27,99,73,11.1,PT,1707831457
169,taseyevo,51.5638,116.6598,-16.92,92,100,1.81,RU,1707831458
170,isafjordur,66.0727,-23.1194,-0.95,74,75,1.54,IS,1707831459
171,hawaiian paradise park,19.585,-154.9731,17.66,72,0,3.6,US,1707831459
172,kazanskoye,57.1485,49.1274,-15.91,97,86,3.51,RU,1707831460
173,guiren,22.9672,120.2938,21.0,59,20,1.54,TW,1707831461
174,mount isa,-20.729,139.4932,25.92,83,40,4.12,AU,1707831462
175,demopolis,32.5178,-87.8368,4.97,87,0,2.57,US,1707831462
176,zhezqazghan,47.8043,67.7146,-9.01,86,75,4.0,KZ,1707831463
177,pacific grove,36.6211,-121.9178,9.68,89,0,4.12,US,1707831464
178,rancharia,-22.2295,-50.8922,33.25,36,79,3.8,BR,1707831465
179,ancud,-41.8682,-73.8287,13.68,58,9,0.99,CL,1707831465
180,awjilah,29.1403,21.2975,16.01,55,90,5.42,LY,1707831467
181,illizi,26.5042,8.4799,23.82,20,0,7.03,DZ,1707831468
182,samarinda,-0.5018,117.1393,25.21,89,99,1.68,ID,1707831468
183,sitka,57.0525,-135.3376,0.9,86,0,0.0,US,1707831469
184,birao,10.2962,22.781,39.6,7,100,1.7,CF,1707831470
185,ciudad lazaro cardenas,20.4622,-97.6991,14.66,80,73,0.63,MX,1707831471
186,twon-brass,4.3105,6.2411,30.01,75,36,7.07,NG,1707831471
187,la'ie,21.6438,-157.9244,21.98,91,3,1.88,US,1707831472
188,portland,45.5202,-122.6742,4.89,96,100,2.57,US,1707831149
189,north battleford,52.7812,-108.2991,-7.84,73,100,3.6,CA,1707831000
190,mar del plata,-37.9977,-57.5483,19.39,54,75,5.81,AR,1707831475
191,laojunmiao,33.3841,114.8906,12.71,72,0,3.57,CN,1707831476
192,zimapan,20.7369,-99.3819,10.52,68,91,0.61,MX,1707831477
193,dzhubga,44.3171,38.7044,12.11,68,100,4.32,RU,1707831477
194,okhotsk,59.3644,143.2411,-21.6,99,100,1.62,RU,1707831478
195,luderitz,-26.65,15.1573,24.45,62,81,10.21,NA,1707831479
196,bay harbor,30.1471,-85.6146,10.04,75,100,8.23,US,1707831479
197,cannonvale,-20.2822,148.6895,27.9,84,93,3.64,AU,1707831480
198,priozersk,46.0315,73.6901,-9.15,90,65,3.93,KZ,1707831481
199,ust-nera,64.5664,143.2378,-41.55,97,67,0.91,RU,1707831482
200,rabo de peixe,37.8083,-25.5851,18.08,99,20,9.77,PT,1707831483
201,ubari,43.0563,141.9739,3.05,90,6,3.55,JP,1707831484
202,suntar,62.1575,117.6463,-26.93,97,100,2.51,RU,1707831485
203,opuwo,-18.055,13.8387,32.76,34,41,4.93,NA,1707831486
204,mhamid,30.1284,-6.8834,28.15,15,18,3.54,MA,1707831487
205,puerto aysen,-45.4068,-72.6977,19.65,50,100,1.03,CL,1707831488
206,liwale,-9.8022,37.9157,25.24,89,100,0.83,TZ,1707831489
207,harper,41.3625,-92.051,0.06,74,93,1.7,US,1707831489
208,malmberget,67.1761,20.6589,-22.7,84,75,1.03,SE,1707831490
209,nuuk,64.175,-51.7355,-12.6,72,20,9.26,GL,1707831491
210,mount pearl,47.5189,-52.8145,-0.5,87,100,5.14,CA,1707831492
211,saint-philippe,45.3584,-73.479,-1.46,92,100,3.09,CA,1707831493
212,fort mcmurray,56.7292,-111.3885,-10.23,85,75,4.12,CA,1707831494
213,remire-montjoly,4.905,-52.2772,29.0,79,75,7.2,GF,1707831495
214,uturoa,-16.7437,-151.4594,25.58,84,100,11.13,PF,1707831496
215,mankono,8.0577,-6.1898,39.25,19,6,2.03,CI,1707831497
216,dno,57.8288,29.9611,-3.77,85,100,4.86,RU,1707831497
217,mana,43.0818,0.9505,17.38,41,12,1.6,FR,1707831498
218,harstad,68.9297,16.5209,-4.3,78,100,6.89,NO,1707831499
219,ndungu,-4.3797,38.0588,31.61,47,83,2.64,TZ,1707831500
220,caleta de carquin,-11.0918,-77.6283,25.41,76,8,2.95,PE,1707831500
221,taoudenni,22.6762,-3.9805,34.65,12,0,6.46,ML,1707831502
222,sao vicente,-23.9604,-46.3847,34.0,43,0,4.63,BR,1707831503
223,semey,50.405,80.2492,-15.97,78,0,3.0,KZ,1707831504
224,zhob,31.3397,69.4477,13.26,18,0,2.34,PK,1707831504
225,bothaville,-27.3889,26.6167,35.82,14,68,3.57,ZA,1707831505
226,port elizabeth,-33.9617,25.6208,24.06,64,0,10.8,ZA,1707831506
227,coquimbo,-29.9532,-71.338,17.93,100,100,2.06,CL,1707831507
228,bardai,21.355,17.0005,24.78,14,0,5.59,TD,1707831508
229,kodiak,57.79,-152.4072,3.73,93,100,12.86,US,1707831202
230,port hedland,-20.3112,118.5801,29.02,79,1,3.09,AU,1707831509
231,carnarvon,-24.8826,113.6576,26.43,65,0,10.09,AU,1707831510
232,lebu,-37.61,-73.6559,18.26,60,5,6.02,CL,1707831511
233,praia da vitoria,38.7392,-27.1563,13.68,94,75,6.94,PT,1707831512
234,howard springs,-12.497,131.047,28.79,93,100,4.5,AU,1707831512
235,asia,44.7169,11.3376,16.19,79,10,1.89,IT,1707831514
236,borzya,50.3852,116.5331,-24.74,98,12,0.65,RU,1707831514
237,vershino-darasunskiy,52.366,115.5509,-14.79,68,100,3.2,RU,1707831515
238,puan,35.7631,115.0234,13.22,63,3,2.95,CN,1707831516
239,tazacorte,28.6429,-17.9326,21.38,68,0,3.09,ES,1707831517
240,sinop,42.0266,35.1512,17.96,48,40,2.06,TR,1707831517
241,kloulklubed,7.0415,134.2565,25.18,79,87,10.53,PW,1707831518
242,kerikeri,-35.2273,173.9491,16.49,88,20,0.21,NZ,1707831519
243,alice springs,-23.6984,133.8813,30.75,25,75,3.6,AU,1707831520
244,prince george,53.9129,-122.7454,-9.68,85,20,0.0,CA,1707831520
245,krynica-zdroj,49.4206,20.9594,5.93,22,100,5.08,PL,1707831521
246,sechura,-5.5575,-80.8223,26.51,71,98,4.38,PE,1707831522
247,la passe,46.2035,-1.4601,11.08,87,71,8.72,FR,1707831523
248,aldama,22.9196,-98.0742,15.79,38,100,1.06,MX,1707831523
249,nacala,-14.5583,40.6864,24.84,94,100,5.14,MZ,1707831524
250,gobabis,-22.4495,18.9725,31.16,27,65,6.02,NA,1707831525
251,karsun,54.1971,46.9793,-8.82,94,88,3.0,RU,1707831526
252,kayangel,8.0822,134.719,26.97,80,27,10.51,PW,1707831526
253,khvoynaya,58.8961,34.5122,-12.27,93,70,3.27,RU,1707831527
254,dhidhdhoo,6.889,73.1134,28.02,74,50,5.63,MV,1707831528
255,andrews,32.3187,-102.5457,2.97,60,0,3.6,US,1707831529
256,haukipudas,65.1764,25.3532,-12.7,75,55,5.69,FI,1707831529
257,kingston,17.9712,-76.7928,27.17,92,75,3.6,JM,1707831530
258,alesund,62.7671,6.1688,5.08,59,85,5.02,NO,1707831531
259,broome,-17.9567,122.224,29.94,74,40,4.63,AU,1707831532
260,ambodifotatra,-19.1786,48.8769,27.1,82,100,3.55,MG,1707831532
261,qandala,11.4719,49.8734,26.62,74,21,2.64,SO,1707831533
262,dashiqiao,40.6348,122.5043,4.36,83,100,2.62,CN,1707831534
263,castillos,-34.2003,-53.8608,19.67,52,100,6.92,UY,1707831535
264,kormilovka,55.0029,74.0938,-13.47,87,100,5.96,RU,1707830939
265,necochea,-38.5545,-58.7393,17.78,53,0,6.64,AR,1707831537
266,mejit,10.2843,170.8699,26.43,75,100,7.16,MH,1707831537
267,rey bouba,8.6712,14.1768,40.65,6,88,2.22,CM,1707831538
268,tam ky,15.5674,108.4842,21.96,86,95,1.4,VN,1707831539
269,avarua,-21.2075,-159.7708,22.99,94,76,0.51,CK,1707831540
270,vila velha,-20.3297,-40.292,30.53,72,20,3.6,BR,1707831540
271,kosh-agach,49.9947,88.6628,-25.95,85,53,0.89,RU,1707831541
272,san luis,-33.302,-66.337,21.98,39,47,2.86,AR,1707831542
273,valley city,46.9233,-98.0032,-5.71,100,40,3.6,US,1707831060
274,nar'yan-mar,67.638,53.0071,-29.39,98,65,3.58,RU,1707831543
275,brak,27.5516,14.2721,25.47,21,0,10.17,LY,1707831544
276,justo daract,-33.2726,-66.3351,22.11,39,45,2.3,AR,1707831545
277,mountain home,43.133,-115.6912,1.75,79,0,1.54,US,1707831546
278,itaparica,-12.8883,-38.6786,29.96,80,87,3.97,BR,1707831213
279,colesberg,-30.72,25.0972,36.03,11,21,7.83,ZA,1707831259
280,rio grande,-53.7875,-67.6954,11.07,87,0,5.14,AR,1707831286
281,sinhyeon,31.6463,114.88,13.55,73,0,2.64,CN,1707831549
282,dhamar,14.543,44.4001,19.46,42,45,6.39,YE,1707831550
283,tofol,5.326,163.0087,27.83,81,100,7.98,FM,1707831551
284,rapar,23.5722,70.6466,22.55,20,100,3.14,IN,1707831552
285,den burg,53.0552,4.7967,8.99,85,100,8.23,NL,1707831553
286,alotau,-10.3061,150.4464,25.15,90,8,1.43,PG,1707831553
287,mont-dore,45.575,2.8094,7.37,45,10,2.25,FR,1707831554
288,mmabatho,-25.8403,25.6092,34.03,27,20,2.57,ZA,1707831555
289,fortaleza,-3.7305,-38.5218,30.99,84,40,8.23,BR,1707831556
290,al bawiti,28.3518,28.863,19.99,32,1,7.73,EG,1707831557
291,cartagena del chaira,1.3345,-74.8414,25.5,80,95,0.75,CO,1707831557
292,fortuna,40.5974,-124.156,7.29,97,40,0.0,US,1707831558
293,christchurch,-43.531,172.6366,14.68,89,75,1.54,NZ,1707831559
294,kshenskiy,51.849,37.7242,1.7,100,100,2.22,RU,1707831560
295,las tablas,7.7678,-80.2764,26.15,99,100,5.8,PA,1707831561
296,serdar,41.6171,32.437,12.64,77,100,1.59,TR,1707831561
297,morden,51.4007,-0.1939,9.92,91,75,7.2,GB,1707831562
298,bathurst,-33.4166,149.5805,17.76,90,31,1.7,AU,1707831563
299,ankazobe,-18.3144,47.1145,22.72,78,99,4.85,MG,1707831564
300,dehui,44.535,125.6954,-4.72,88,100,1.65,CN,1707831564
301,mae chan,16.0312,98.6621,19.4,53,13,1.14,TH,1707831565
302,kwekwe,-18.9284,29.814,28.73,33,0,4.83,ZW,1707831566
303,hauterive,48.4774,0.199,7.35,93,100,5.75,FR,1707831567
304,ocean city,39.2776,-74.5746,4.01,89,100,8.94,US,1707831568
305,fort st. john,56.2524,-120.8469,-8.06,67,20,1.54,CA,1707831568
306,latakia,35.52,35.7781,23.08,64,100,3.35,SY,1707831569
307,taltal,-25.4078,-70.4858,21.48,74,93,2.0,CL,1707831570
308,kzyltu,42.562,69.9917,10.05,68,66,1.67,KZ,1707831571
309,ijuw,-0.5152,166.9573,28.17,82,100,5.46,NR,1707831571
310,albertina,-20.6616,-43.784,26.26,60,98,1.69,BR,1707831572
311,grand island,40.9243,-98.3387,-0.94,87,0,0.0,US,1707831573
312,labytnangi,66.6615,66.3811,-35.41,96,8,2.04,RU,1707831574
313,tommot,58.9685,126.2669,-24.58,93,100,3.63,RU,1707831575
314,cooma,-36.2356,149.1264,18.75,78,90,5.69,AU,1707831575
315,riosucio,5.421,-75.7031,20.72,71,31,0.69,CO,1707831576
316,gisborne,-38.6613,178.0206,14.37,90,6,3.23,NZ,1707831577
317,becerril,9.7033,-73.2786,32.17,45,30,0.51,CO,1707831578
318,kristiansund,63.2168,7.5453,4.36,45,0,2.57,NO,1707831578
319,taro,-8.3862,115.28,25.0,96,100,0.8,ID,1707831579
320,kemijarvi,66.7161,27.4334,-20.92,98,85,1.96,FI,1707831580
321,chonchi,-42.624,-73.7724,15.79,36,100,1.73,CL,1707831581
322,turkmenbasy,40.0053,52.9929,21.51,18,0,5.14,TM,1707831581
323,lompoc,34.6392,-120.4579,12.1,87,100,2.57,US,1707831294
324,coracora,-15.017,-73.7809,16.56,62,66,1.72,PE,1707831583
325,kone,-21.0608,164.8619,24.71,90,3,2.02,NC,1707831584
326,veraval,20.9101,70.3653,24.1,48,100,6.93,IN,1707831585
327,thunder bay,48.4064,-89.2598,-13.94,92,20,2.06,CA,1707831585
328,fada,9.5986,8.4422,36.1,7,0,2.06,NG,1707831586
329,skeldon,5.8847,-57.1414,29.03,67,63,3.54,GY,1707831587
330,conselheiro pena,-19.1721,-41.472,29.42,66,100,1.14,BR,1707831588
331,namibe,-15.1951,12.1458,28.82,66,48,4.26,AO,1707831588
332,luckenwalde,52.0902,13.1742,9.95,69,84,2.68,DE,1707831589
333,murghob,38.171,73.9669,-11.04,53,24,2.74,TJ,1707831591
334,susuman,62.7797,148.1536,-39.99,100,96,0.45,RU,1707831591
335,stanilesti,46.6209,28.1736,13.03,62,99,1.15,RO,1707831592
336,sinabang,2.4795,96.3806,28.57,72,12,0.74,ID,1707831593
337,canakkale,40.1463,26.4029,14.05,76,75,1.54,TR,1707831594
338,grand-bassam,5.2129,-3.7432,32.98,66,34,4.54,CI,1707831594
339,kolwezi,-10.717,25.467,24.28,69,28,2.4,CD,1707831595
340,vegreville,53.5,-112.05,-4.7,71,98,5.66,CA,1707831596
341,oriximina,-1.767,-55.8683,29.35,67,99,2.35,BR,1707831597
342,al burayqah,12.7524,44.8921,26.23,78,8,7.16,YE,1707831598
343,le morne-rouge,14.7741,-61.1347,26.42,76,53,6.21,MQ,1707831599
344,petropavlovsk-kamchatsky,53.02,158.6471,-16.8,81,94,3.13,RU,1707831599
345,aasiaat,68.7096,-52.8513,-28.74,98,100,3.61,GL,1707831600
346,brisas de zicatela,15.8367,-97.0429,22.29,83,0,3.6,MX,1707831601
347,nouadhibou,20.9127,-17.0503,22.96,73,62,2.57,MR,1707831603
348,comodoro rivadavia,-45.8632,-67.4753,24.25,16,0,1.03,AR,1707831605
349,ixtapa,16.8033,-92.9054,15.78,77,46,1.65,MX,1707831606
350,st. thomas,49.4972,3.8202,9.93,71,96,5.32,FR,1707831606
351,genhe,51.3347,121.8112,-24.44,100,51,1.04,CN,1707831607
352,quellon,-43.12,-73.6203,15.62,61,99,4.46,CL,1707831608
353,ardesen,41.1919,40.9894,15.43,54,100,0.97,TR,1707831610
354,sahawar,27.7954,78.8342,17.68,48,100,2.58,IN,1707831611
355,aykhal,65.9516,111.4918,-32.89,100,100,3.95,RU,1707831612
356,crucecita,-34.6708,-58.356,18.97,54,0,4.63,AR,1707831613
357,vilhena,-12.7369,-60.1466,24.08,88,100,1.03,BR,1707831614
358,nazarovo,56.0116,90.4185,-15.95,92,100,2.61,RU,1707831615
359,manggar,-2.8673,108.2759,27.2,83,83,2.03,ID,1707831616
360,tougan,13.0691,-3.0695,37.45,4,99,3.96,BF,1707831617
361,prince rupert,54.3127,-130.3255,2.69,100,100,3.09,CA,1707831618
362,rio preto da eva,-2.6991,-59.7012,23.63,100,100,0.54,BR,1707831619
363,ulladulla,-35.3622,150.4752,22.39,70,28,2.46,AU,1707831620
364,itaituba,-4.2625,-55.9878,25.03,94,100,2.06,BR,1707831621
365,dutse,11.691,9.3391,36.58,5,0,4.98,NG,1707831622
366,berdigestyakh,62.0983,126.6998,-25.85,96,100,3.18,RU,1707831623
367,renala khurd,30.8783,73.5999,16.76,19,0,2.1,PK,1707831625
368,kazalinsk,45.7626,62.1012,2.11,61,100,3.53,KZ,1707831625
369,cruzeiro do sul,-29.514,-51.9917,25.27,94,100,1.92,BR,1707831627
370,margate,51.3878,1.382,10.0,78,100,4.02,GB,1707831628
371,mahdia,35.457,1.7415,16.46,54,5,6.05,DZ,1707831629
372,filiatra,37.1572,21.5859,18.59,68,0,4.49,GR,1707831630
373,hilo,19.7074,-155.0816,18.08,79,0,3.6,US,1707831631
374,gufeng,26.9135,118.983,9.11,81,6,0.64,CN,1707831632
375,san benedetto po,45.0419,10.9283,16.08,72,11,1.34,IT,1707831634
376,emerald,-23.5263,148.1619,24.06,87,100,5.16,AU,1707831635
377,nguruka,-5.1112,31.0443,24.27,84,98,2.19,TZ,1707831636
378,mahibadhoo,3.7572,72.9689,27.85,83,90,9.1,MV,1707831636
379,gingelom,50.7515,5.1324,10.18,80,100,1.79,BE,1707831637
380,kruisfontein,-34.012,24.7433,25.05,56,94,10.78,ZA,1707831639
381,leksand,60.7167,15.0,-3.2,97,100,1.29,SE,1707831640
382,lisakovsk,52.5459,62.4892,1.06,98,100,8.45,KZ,1707831641
383,arteche,11.6821,124.8624,24.78,86,91,4.02,PH,1707831641
384,havre,48.55,-109.6841,-7.85,79,75,3.6,US,1707831200
385,loreto,43.4395,13.607,13.31,69,4,5.48,IT,1707831643
386,wellington,-41.2888,174.7772,16.29,84,75,7.72,NZ,1707831600
387,tikhvin,59.6443,33.5419,-9.91,90,6,3.33,RU,1707831644
388,amble,55.3338,-1.5839,8.42,66,20,6.69,GB,1707831645
389,olyokminsk,60.373,120.4388,-25.49,99,100,1.35,RU,1707831646
390,guatire,10.4685,-66.5431,29.34,63,52,1.6,VE,1707831647
391,bhanpura,24.5124,75.7456,21.66,40,100,2.29,IN,1707831647
392,kenai,60.5544,-151.258,3.05,78,40,3.6,US,1707831145
393,marrakesh,31.6258,-7.9892,26.97,41,75,2.06,MA,1707831649
394,codrington,51.5082,-2.3937,10.38,93,100,2.68,GB,1707831650
395,musay'id,34.8609,37.3343,13.6,57,100,8.01,SY,1707831650
396,ambon,47.5542,-2.5567,13.37,94,100,9.1,FR,1707831651
397,westport,41.1415,-73.3579,1.29,86,100,6.69,US,1707831489
398,port lincoln,-34.7212,135.8592,17.22,58,98,7.55,AU,1707831653
399,vylkove,45.4031,29.5831,9.67,79,99,2.57,UA,1707831653
400,seogwipo,33.2573,126.5153,16.04,80,100,4.92,KR,1707831655
401,mahina,-17.558,-149.4694,22.55,83,75,3.09,PF,1707831655
402,kununurra,-15.7731,128.7388,26.95,94,91,2.06,AU,1707831656
403,yujing,23.1222,120.4574,19.28,48,0,2.4,TW,1707831657
404,santa maria,-29.6861,-53.8069,21.58,94,100,3.6,BR,1707831658
405,oranjemund,-28.5519,16.4284,21.44,74,73,9.2,NA,1707831658
406,lavra,41.2595,-8.7169,19.12,96,75,4.63,PT,1707831659
407,ulaangom,49.98,92.0689,-21.13,81,91,2.42,MN,1707831660
408,zalingei,12.9134,23.4738,35.3,8,15,5.04,SD,1707831661
409,pisco,-13.71,-76.203,24.94,78,100,1.54,PE,1707831661
410,coahuayana de hidalgo,18.6963,-103.662,21.67,87,81,0.98,MX,1707831662
411,hachinohe,40.5122,141.4883,9.13,71,44,8.11,JP,1707831663
412,frontera,27.7535,-18.0107,21.51,72,0,3.6,ES,1707831664
413,saint sampson,49.4817,-2.5388,11.97,93,75,7.2,GG,1707831665
414,maun,-19.9861,23.4224,35.76,18,0,5.49,BW,1707831666
415,trindade,-16.655,-49.4876,28.86,53,12,2.44,BR,1707831666
416,pitimbu,-7.4728,-34.8112,31.2,69,63,6.43,BR,1707831667
417,hotan,37.1127,79.9112,7.11,30,100,2.45,CN,1707831668
418,ephrata,40.1799,-76.1789,1.15,89,100,5.14,US,1707831669
419,woodfield,45.5177,-62.3914,-1.23,87,80,1.83,CA,1707831670
420,howrah,22.5736,88.3251,22.97,60,75,1.54,IN,1707831670
421,pandan,-3.2874,104.193,24.46,96,99,1.4,ID,1707831671
422,gamba,28.2764,88.5165,-6.95,60,92,3.38,CN,1707831672
423,porto torres,40.837,8.4013,15.1,72,91,3.75,IT,1707831673
424,samana,19.2055,-69.3362,24.12,88,20,2.06,DO,1707831674
425,barcelos,41.5314,-8.6192,18.97,80,100,3.89,PT,1707831674
426,firuzabad,28.8456,52.5727,16.15,30,3,2.81,IR,1707831675
427,xilin hot,43.9312,116.0789,-10.19,87,100,3.2,CN,1707831676
428,puerto baquerizo moreno,-0.9026,-89.6102,26.73,81,60,5.31,EC,1707831677
429,gornopravdinsk,60.0603,69.9229,-17.35,96,100,5.04,RU,1707831678
430,geraldton,-28.7704,114.6147,23.09,73,0,7.72,AU,1707831679
431,la sarre,48.8001,-79.201,-16.16,94,83,3.21,CA,1707831679
432,burang,30.2962,81.1748,-7.87,89,97,2.58,CN,1707831680
433,santona,43.445,-3.4559,22.09,60,94,1.47,ES,1707831681
434,worland,44.0168,-107.9558,-5.22,87,75,2.06,US,1707831682
435,sao jose da coroa grande,-8.8894,-35.1515,32.09,51,79,4.34,BR,1707831683
436,noosa heads,-26.4001,153.091,23.22,87,57,2.55,AU,1707831684
437,suarez,4.0485,-74.833,27.71,72,93,0.78,CO,1707831685
438,alo,-14.342,-178.042,26.26,80,100,7.4,WF,1707831686
439,ust'-barguzin,53.4107,109.0311,-12.13,82,100,3.3,RU,1707831687
440,saint-francois,47.0019,-70.8129,-4.55,82,84,1.54,CA,1707831688
441,nyurba,63.2866,118.3541,-33.61,99,100,1.48,RU,1707831689
442,shenjiamen,29.9479,122.2798,11.5,91,91,4.2,CN,1707831690
443,amungan,15.3641,119.9585,26.17,69,98,3.64,PH,1707831691
444,maues,-3.3836,-57.7186,25.85,95,96,1.34,BR,1707831189
445,st. john's,47.5615,-52.7126,0.13,86,100,5.14,CA,1707831693
446,lihue,21.977,-159.3688,21.66,85,0,4.12,US,1707831694
447,malango,-2.9627,119.9001,20.85,98,100,0.87,ID,1707831695
448,preobrazheniye,42.9015,133.8988,1.13,77,1,4.53,RU,1707831696
449,bela,46.2233,14.8601,11.66,43,12,3.58,SI,1707831696
450,bamboo flat,11.7126,92.7164,27.81,78,40,4.12,IN,1707831697
451,boa vista,2.8208,-60.672,27.99,65,75,7.2,BR,1707831698
452,yuzhno-kurilsk,44.0271,145.8614,-0.06,87,2,2.59,RU,1707831699
453,hovd,48.0006,91.6452,-11.15,44,53,0.43,MN,1707831700
454,tanda,44.2287,22.147,8.25,100,100,7.48,RS,1707831700
455,purnia,25.7774,87.4731,20.79,40,47,1.5,IN,1707831701
456,callao,-12.0523,-77.1391,27.58,73,75,4.12,PE,1707831702
457,hayma',15.4662,44.2266,21.43,32,89,5.68,YE,1707831703
458,nantucket,41.3157,-70.009,2.99,99,100,11.83,US,1707831703
459,cockburn town,21.4608,-71.14,25.31,80,21,5.87,TC,1707831704
460,nizhneangarsk,55.7836,109.5718,-15.08,79,100,1.34,RU,1707831705
461,puno,-15.8406,-70.028,9.65,73,100,0.98,PE,1707831706
462,solwezi,-12.1821,26.3991,26.38,59,62,1.85,ZM,1707831706
463,an nuhud,12.6922,28.4221,35.78,7,89,4.06,SD,1707831707
464,puquio,-14.6946,-74.1237,16.39,60,83,2.44,PE,1707831708
465,najran,17.544,44.2247,23.59,29,91,6.68,SA,1707831709
466,birjand,32.8634,59.2177,18.2,11,0,4.12,IR,1707831709
467,dakhla,23.6941,-15.9431,26.01,36,100,1.54,EH,1707831710
468,espargos,16.7578,-22.9431,26.91,57,20,4.63,CV,1707831711
469,mugia,43.1071,-9.2182,17.68,92,10,8.14,ES,1707831712
470,alibag,18.6498,72.8765,28.01,66,100,7.29,IN,1707831713
471,vanimo,-2.6848,141.3009,25.94,90,91,2.54,PG,1707831713
472,volchikha,52.0171,80.365,-8.34,73,100,5.36,RU,1707831714
473,kedougou,12.5571,-12.1855,40.73,5,0,2.44,SN,1707831715
474,plettenberg bay,-34.0528,23.3694,26.57,57,83,4.61,ZA,1707831716
475,hastings,50.8554,0.5825,10.11,35,100,6.99,GB,1707831716
476,san miguel de salcedo,-1.0437,-78.5908,13.91,87,75,1.54,EC,1707831717
477,la cruz,-32.656,-70.7139,29.94,27,0,2.92,CL,1707831718
478,serradifalco,37.4538,13.8805,14.84,80,25,5.47,IT,1707831719
479,balotra,25.8348,72.2411,23.38,11,100,4.17,IN,1707831719
480,aral,40.5422,81.2771,2.48,53,6,4.84,CN,1707831720
481,road town,18.4257,-64.6232,26.99,78,40,3.6,VG,1707831721
482,weno,7.4401,151.857,26.47,74,75,6.69,FM,1707831721
483,fisterra,42.9065,-9.2638,17.68,94,8,8.69,ES,1707831722
484,bandipura,27.4412,76.6211,18.13,36,100,2.42,IN,1707831723
485,baley,51.5775,116.6485,-19.02,96,100,1.85,RU,1707831241
486,mastic beach,40.7657,-72.8367,1.41,95,100,6.71,US,1707831724
487,eydhafushi,5.1026,73.0702,27.71,76,28,6.5,MV,1707831725
488,general conesa,-40.1062,-64.453,22.81,19,0,6.72,AR,1707831726
489,turpan,42.94,89.184,4.99,32,7,1.8,CN,1707831727
490,kuanda,56.3257,116.0827,-20.3,88,100,0.18,RU,1707831728
491,kitgum,3.2965,32.8818,33.94,25,100,3.03,UG,1707831729
492,drayton valley,53.2206,-114.9832,-6.47,88,96,4.87,CA,1707831730
493,akonolinga,3.7734,12.2449,38.73,15,10,1.59,CM,1707831731
494,dapa,9.7569,126.0516,26.12,79,98,4.71,PH,1707831732
495,labrador city,52.9423,-66.9177,-15.05,78,100,3.09,CA,1707831733
496,ranchettes,41.2186,-104.7902,-0.39,56,0,2.06,US,1707831734
497,dali,25.6802,100.3001,7.14,54,0,2.59,CN,1707831735
498,ivins,37.1686,-113.6794,2.85,64,66,1.76,US,1707831723
499,hammerfest,70.6413,23.8361,-8.56,68,100,10.29,NO,1707831736
500,igoumenitsa,39.5045,20.2651,15.81,73,90,2.05,GR,1707831738
501,tocopilla,-22.0887,-70.1961,21.69,87,100,2.69,CL,1707831739
502,barclayville,4.6804,-8.2333,31.35,66,62,2.35,LR,1707831739
503,acarau,-2.887,-40.1195,30.62,63,100,6.62,BR,1707831741
504,sabang,5.8927,95.3226,28.25,77,2,9.57,ID,1707831742
505,san julian,35.9199,14.4877,17.31,59,20,7.2,MT,1707831743
506,san isidro,38.1708,-0.8387,25.49,44,49,4.02,ES,1707831744
507,port blair,11.6645,92.739,27.68,78,40,4.12,IN,1707831746
508,juegang,32.3154,121.1876,11.42,79,96,3.53,CN,1707831747
509,oliver,49.1833,-119.55,-1.08,93,9,1.03,CA,1707831748
510,mineiros,-17.5654,-52.5537,28.26,56,45,3.77,BR,1707831750
511,youghal,52.8886,-8.3075,8.71,94,100,1.97,IE,1707831752
512,sisa,20.7196,77.1096,28.04,23,100,3.24,IN,1707831753
513,uliastay,47.7416,96.8475,-24.36,87,7,3.36,MN,1707831754
514,fuglafjordur,62.2431,-6.8178,6.58,79,69,5.72,FO,1707831755
515,saint-pierre,48.3833,7.4719,12.73,59,47,2.64,FR,1707831756
516,maktar,35.8559,9.2057,12.28,61,38,9.8,TN,1707831757
517,nyala,12.0505,24.8795,35.43,7,96,1.29,SD,1707831757
518,general villegas,-35.0326,-63.0148,18.75,39,100,3.47,AR,1707831758
519,biloela,-24.3998,150.5142,22.27,88,93,2.49,AU,1707831759
520,hadibu,12.6512,54.0237,26.09,72,91,3.62,YE,1707831760
521,mundybash,53.2104,87.2762,-10.96,88,100,3.27,RU,1707831760
522,yarovoye,52.9197,78.5636,-10.08,84,100,5.92,RU,1707831761
523,paracuru,-3.41,-39.0306,28.95,65,47,5.08,BR,1707831203
524,yanchep,-31.5499,115.6257,28.73,38,0,4.79,AU,1707831763
525,moussoro,8.7618,17.9505,40.03,7,100,2.2,TD,1707831764
526,chui,-33.6895,-53.4547,20.56,53,100,7.2,BR,1707831764
527,ljusdal,61.8667,15.7,-5.14,96,100,3.23,SE,1707831765
528,nizhnyaya tavda,57.6652,66.1723,-9.96,95,100,2.61,RU,1707831766
529,jiazi,19.101,109.8735,17.63,89,18,1.78,CN,1707831767
530,ebon,4.5833,168.7333,27.89,78,87,10.22,MH,1707831768
531,oregon,45.4175,-122.6733,4.7,95,100,2.57,US,1707831504
532,meadow lake,54.1303,-108.4351,-6.01,73,100,4.12,CA,1707831769
533,yagry,64.6174,39.8261,-20.94,100,10,0.86,RU,1707831770
534,'ajab shir,37.4788,45.8929,15.21,48,100,0.97,IR,1707831509
535,yreka,41.7326,-122.6378,3.58,91,0,1.54,US,1707831771
536,makubetsu,42.9085,143.3561,-0.89,89,4,2.37,JP,1707831772
537,tubarjal,30.5007,38.2165,23.76,15,99,3.91,SA,1707831773
538,hosszupalyi,47.3918,21.7335,11.0,50,0,9.77,HU,1707831774
539,russkaya polyana,53.7804,73.8821,-10.2,82,100,7.41,RU,1707831775
540,marmolejo,38.0448,-4.1709,21.3,63,59,1.17,ES,1707831776
541,arauquita,7.0295,-71.4279,28.25,51,100,1.37,CO,1707831777
542,juneau,58.3019,-134.4197,-1.0,93,100,0.0,US,1707831649
543,qamdo,31.145,97.1699,1.53,33,37,2.39,CN,1707831779
544,concepcion,-36.8271,-73.0502,19.9,60,0,3.09,CL,1707831779
